{
	"locations": [
		{
			"id": 43,
			"name": "South Bend",
			"lng": -86.25198975,
			"lat": 41.67635452
		},
		{
			"id": 62,
			"name": "Tahoe City",
			"lng": -120.17624939,
			"lat": 39.14468032
		},
		{
			"id": 74,
			"name": "Cocoa Beach",
			"lng": -80.60755128,
			"lat": 28.32000668
		},
		{
			"id": 108,
			"name": "Fresno",
			"lng": -119.77258683,
			"lat": 36.74684219
		},
		{
			"id": 112,
			"name": "Alexandria",
			"lng": -77.04692136,
			"lat": 38.80483552
		},
		{
			"id": 121,
			"name": "Ao Nang",
			"lng": 98.83281406,
			"lat": 8.03628342
		},
		{
			"id": 154,
			"name": "San Bernardino",
			"lng": -117.28976518,
			"lat": 34.10834492
		},
		{
			"id": 187,
			"name": "Rock Springs",
			"lng": -109.20290426,
			"lat": 41.58746438
		},
		{
			"id": 21,
			"name": "Helsinki",
			"lng": 24.94102486,
			"lat": 60.17332439
		},
		{
			"id": 25,
			"name": "Brussels",
			"lng": 4.35171032,
			"lat": 50.85033963
		},
		{
			"id": 31,
			"name": "Havana",
			"lng": -82.34518898,
			"lat": 23.05406976
		},
		{
			"id": 39,
			"name": "Des Moines",
			"lng": -93.60910642,
			"lat": 41.60054480
		},
		{
			"id": 81,
			"name": "Cleveland",
			"lng": -81.69436049,
			"lat": 41.49932003
		},
		{
			"id": 88,
			"name": "Boston",
			"lng": -71.05888010,
			"lat": 42.36008253
		},
		{
			"id": 89,
			"name": "Cambridge",
			"lng": -71.10973352,
			"lat": 42.37361581
		},
		{
			"id": 129,
			"name": "Atlanta",
			"lng": -84.38798237,
			"lat": 33.74899538
		},
		{
			"id": 7,
			"name": "Decatur",
			"lng": -88.95480008,
			"lat": 39.84031474
		},
		{
			"id": 29,
			"name": "Gozo Marina",
			"lng": 14.30046999,
			"lat": 36.02618298
		},
		{
			"id": 47,
			"name": "Seattle",
			"lng": -122.33207078,
			"lat": 47.60620949
		},
		{
			"id": 92,
			"name": "Washington",
			"lng": -77.03687073,
			"lat": 38.90719228
		},
		{
			"id": 136,
			"name": "Dallas",
			"lng": -96.79698789,
			"lat": 32.77666417
		},
		{
			"id": 137,
			"name": "Houston",
			"lng": -95.36980278,
			"lat": 29.76042672
		},
		{
			"id": 159,
			"name": "Burbank",
			"lng": -87.76073800,
			"lat": 41.74676189
		},
		{
			"id": 162,
			"name": "County Kildare",
			"lng": -6.80521793,
			"lat": 53.17653577
		},
		{
			"id": 186,
			"name": "Park City",
			"lng": -111.49797287,
			"lat": 40.64606222
		},
		{
			"id": 15,
			"name": "Sutton",
			"lng": -6.11030635,
			"lat": 53.38951660
		},
		{
			"id": 51,
			"name": "South San Francisco",
			"lng": -122.40774978,
			"lat": 37.65465599
		},
		{
			"id": 67,
			"name": "Kansas City",
			"lng": -94.57856669,
			"lat": 39.09972653
		},
		{
			"id": 104,
			"name": "Huntington Beach",
			"lng": -117.99922652,
			"lat": 33.66029695
		},
		{
			"id": 141,
			"name": "Akron",
			"lng": -81.51900534,
			"lat": 41.08144467
		},
		{
			"id": 151,
			"name": "Pasadena",
			"lng": -118.14451551,
			"lat": 34.14778488
		},
		{
			"id": 134,
			"name": "Seattle",
			"lng": -122.33207078,
			"lat": 47.60620949
		},
		{
			"id": 168,
			"name": "Scottsdale",
			"lng": -111.92605187,
			"lat": 33.49417041
		},
		{
			"id": 24,
			"name": "Paris",
			"lng": 2.35222186,
			"lat": 48.85661400
		},
		{
			"id": 37,
			"name": "Omaha",
			"lng": -95.99798827,
			"lat": 41.25236337
		},
		{
			"id": 65,
			"name": "Salt Lake City",
			"lng": -111.89104742,
			"lat": 40.76077929
		},
		{
			"id": 73,
			"name": "Nashville",
			"lng": -86.78160155,
			"lat": 36.16266378
		},
		{
			"id": 93,
			"name": "Palm Springs",
			"lng": -116.54529212,
			"lat": 33.83029610
		},
		{
			"id": 119,
			"name": "Bangkok",
			"lng": 100.50176509,
			"lat": 13.75633089
		},
		{
			"id": 160,
			"name": "Rio de Janeiro",
			"lng": -43.17289647,
			"lat": -22.90684668
		},
		{
			"id": 8,
			"name": "Barcelona",
			"lng": 2.17340351,
			"lat": 41.38506392
		},
		{
			"id": 61,
			"name": "Scotts Valley",
			"lng": -122.01468413,
			"lat": 37.05105952
		},
		{
			"id": 76,
			"name": "Mammoth Cave National Park",
			"lng": -86.10052796,
			"lat": 37.18699800
		},
		{
			"id": 77,
			"name": "Louisville",
			"lng": -85.75845568,
			"lat": 38.25266467
		},
		{
			"id": 100,
			"name": "Yosemite Village",
			"lng": -119.59822102,
			"lat": 37.74520322
		},
		{
			"id": 132,
			"name": "Battle Creek",
			"lng": -85.17971418,
			"lat": 42.32115222
		},
		{
			"id": 188,
			"name": "Minneapolis",
			"lng": -93.26501077,
			"lat": 44.97775298
		},
		{
			"id": 4,
			"name": "Oak Lawn",
			"lng": -87.74795281,
			"lat": 41.71997802
		},
		{
			"id": 10,
			"name": "Haarlem",
			"lng": 4.64621945,
			"lat": 52.38738780
		},
		{
			"id": 45,
			"name": "Kalamazoo",
			"lng": -85.58722858,
			"lat": 42.29170686
		},
		{
			"id": 54,
			"name": "Yountville",
			"lng": -122.36081053,
			"lat": 38.40157809
		},
		{
			"id": 174,
			"name": "Frankfort",
			"lng": -87.84866132,
			"lat": 41.49586651
		},
		{
			"id": 63,
			"name": "South Lake Tahoe",
			"lng": -119.97718680,
			"lat": 38.93992602
		},
		{
			"id": 96,
			"name": "Twentynine Palms",
			"lng": -116.05416888,
			"lat": 34.13555822
		},
		{
			"id": 99,
			"name": "Yosemite Valley",
			"lng": -119.59360376,
			"lat": 37.74557010
		},
		{
			"id": 161,
			"name": "Belo Horizonte",
			"lng": -43.93449308,
			"lat": -19.91668127
		},
		{
			"id": 167,
			"name": "Chandler",
			"lng": -111.84125023,
			"lat": 33.30616046
		},
		{
			"id": 185,
			"name": "Kelly Park",
			"lng": -81.50288974,
			"lat": 28.75748477
		},
		{
			"id": 3,
			"name": "Evergreen Park",
			"lng": -87.70171752,
			"lat": 41.72058890
		},
		{
			"id": 26,
			"name": "Rome",
			"lng": 12.49636552,
			"lat": 41.90278348
		},
		{
			"id": 33,
			"name": "San Francisco",
			"lng": -122.41941548,
			"lat": 37.77492951
		},
		{
			"id": 72,
			"name": "Atlanta",
			"lng": -84.38798237,
			"lat": 33.74899538
		},
		{
			"id": 87,
			"name": "Hartford",
			"lng": -72.68509323,
			"lat": 41.76371107
		},
		{
			"id": 116,
			"name": "Peoria",
			"lng": -89.58898639,
			"lat": 40.69364879
		},
		{
			"id": 9,
			"name": "Amsterdam",
			"lng": 4.89516785,
			"lat": 52.37021570
		},
		{
			"id": 106,
			"name": "San Clemente",
			"lng": -117.61199251,
			"lat": 33.42697282
		},
		{
			"id": 166,
			"name": "Mesa",
			"lng": -111.83147237,
			"lat": 33.41518431
		},
		{
			"id": 69,
			"name": "Boulder",
			"lng": -105.27054561,
			"lat": 40.01498558
		},
		{
			"id": 79,
			"name": "Fort Wayne",
			"lng": -85.13935127,
			"lat": 41.07927296
		},
		{
			"id": 114,
			"name": "Iowa City",
			"lng": -91.53016833,
			"lat": 41.66112768
		},
		{
			"id": 127,
			"name": "Limerick",
			"lng": -8.63049756,
			"lat": 52.66802042
		},
		{
			"id": 190,
			"name": "Mackinaw City",
			"lng": -84.72714650,
			"lat": 45.77749871
		},
		{
			"id": 1,
			"name": "Chicago",
			"lng": -87.62979822,
			"lat": 41.87811363
		},
		{
			"id": 18,
			"name": "Okinawa",
			"lng": 127.80558317,
			"lat": 26.33442658
		},
		{
			"id": 59,
			"name": "Berkeley",
			"lng": -122.27274696,
			"lat": 37.87159258
		},
		{
			"id": 82,
			"name": "Detroit",
			"lng": -83.04575381,
			"lat": 42.33142699
		},
		{
			"id": 113,
			"name": "Chattanooga",
			"lng": -85.30968012,
			"lat": 35.04562968
		},
		{
			"id": 143,
			"name": "San Jose",
			"lng": -121.88632856,
			"lat": 37.33820822
		},
		{
			"id": 156,
			"name": "Beijing",
			"lng": 116.40739498,
			"lat": 39.90421097
		},
		{
			"id": 157,
			"name": "Shanghai",
			"lng": 121.47370099,
			"lat": 31.23041601
		},
		{
			"id": 172,
			"name": "Stockton",
			"lng": -121.29077958,
			"lat": 37.95770158
		},
		{
			"id": 173,
			"name": "Bloomington",
			"lng": -88.99368730,
			"lat": 40.48420267
		},
		{
			"id": 189,
			"name": "Oshkosh",
			"lng": -88.54261362,
			"lat": 44.02470619
		},
		{
			"id": 36,
			"name": "Cheyenne",
			"lng": -104.82024618,
			"lat": 41.13998139
		},
		{
			"id": 38,
			"name": "Austin",
			"lng": -97.74306082,
			"lat": 30.26715296
		},
		{
			"id": 40,
			"name": "Saint Louis",
			"lng": -90.19940423,
			"lat": 38.62700251
		},
		{
			"id": 144,
			"name": "Palo Alto",
			"lng": -122.14301951,
			"lat": 37.44188338
		},
		{
			"id": 148,
			"name": "Boulder Creek",
			"lng": -122.12218685,
			"lat": 37.12605782
		},
		{
			"id": 178,
			"name": "Palos Heights",
			"lng": -87.79644161,
			"lat": 41.66808850
		},
		{
			"id": 180,
			"name": "Evanston",
			"lng": -87.68769690,
			"lat": 42.04507223
		},
		{
			"id": 182,
			"name": "Gary",
			"lng": -87.34642709,
			"lat": 41.59336961
		},
		{
			"id": 14,
			"name": "Swords",
			"lng": -6.21974055,
			"lat": 53.45574671
		},
		{
			"id": 28,
			"name": "Valletta",
			"lng": 14.51455280,
			"lat": 35.89890849
		},
		{
			"id": 66,
			"name": "Lincoln",
			"lng": -96.68519820,
			"lat": 40.82576251
		},
		{
			"id": 80,
			"name": "Columbus",
			"lng": -82.99879419,
			"lat": 39.96117554
		},
		{
			"id": 86,
			"name": "Jersey City",
			"lng": -74.07764172,
			"lat": 40.72815749
		},
		{
			"id": 91,
			"name": "Baltimore",
			"lng": -76.61218928,
			"lat": 39.29038478
		},
		{
			"id": 123,
			"name": "Galway",
			"lng": -9.05679051,
			"lat": 53.27066797
		},
		{
			"id": 150,
			"name": "Glendale",
			"lng": -118.25507504,
			"lat": 34.14250778
		},
		{
			"id": 13,
			"name": "Howth",
			"lng": -6.06468426,
			"lat": 53.38584692
		},
		{
			"id": 23,
			"name": "Hamburg",
			"lng": 9.99368175,
			"lat": 53.55108461
		},
		{
			"id": 52,
			"name": "Napa",
			"lng": -122.28686496,
			"lat": 38.29753814
		},
		{
			"id": 56,
			"name": "San Rafael",
			"lng": -122.53108738,
			"lat": 37.97353462
		},
		{
			"id": 68,
			"name": "Denver",
			"lng": -104.99025100,
			"lat": 39.73923582
		},
		{
			"id": 75,
			"name": "Cape Canaveral",
			"lng": -80.60771316,
			"lat": 28.39221816
		},
		{
			"id": 97,
			"name": "Joshua Tree",
			"lng": -116.31306607,
			"lat": 34.13472799
		},
		{
			"id": 102,
			"name": "Anaheim",
			"lng": -117.91450359,
			"lat": 33.83529320
		},
		{
			"id": 122,
			"name": "Cork",
			"lng": -8.48631569,
			"lat": 51.89689173
		},
		{
			"id": 142,
			"name": "Jacksonville",
			"lng": -81.65565098,
			"lat": 30.33218379
		},
		{
			"id": 153,
			"name": "Chinatown",
			"lng": -118.23833094,
			"lat": 34.06233390
		},
		{
			"id": 165,
			"name": "Tempe",
			"lng": -111.94000544,
			"lat": 33.42551041
		},
		{
			"id": 42,
			"name": "Indianapolis",
			"lng": -86.15806800,
			"lat": 39.76840297
		},
		{
			"id": 48,
			"name": "Redmond",
			"lng": -122.12151201,
			"lat": 47.67398810
		},
		{
			"id": 55,
			"name": "Petaluma",
			"lng": -122.63665237,
			"lat": 38.23241700
		},
		{
			"id": 60,
			"name": "Santa Cruz",
			"lng": -122.03079628,
			"lat": 36.97411711
		},
		{
			"id": 83,
			"name": "Buffalo",
			"lng": -78.87836893,
			"lat": 42.88644679
		},
		{
			"id": 125,
			"name": "Meath",
			"lng": -6.65641694,
			"lat": 53.60554801
		},
		{
			"id": 164,
			"name": "Kilkenny",
			"lng": -7.24478792,
			"lat": 52.65414542
		},
		{
			"id": 50,
			"name": "Daly City",
			"lng": -122.47020792,
			"lat": 37.68792407
		},
		{
			"id": 64,
			"name": "Sacramento",
			"lng": -121.49439960,
			"lat": 38.58157191
		},
		{
			"id": 109,
			"name": "Merced",
			"lng": -120.48296772,
			"lat": 37.30216317
		},
		{
			"id": 111,
			"name": "Arlington",
			"lng": -77.10676977,
			"lat": 38.87996969
		},
		{
			"id": 118,
			"name": "Chiang Mai",
			"lng": 98.98171628,
			"lat": 18.70606409
		},
		{
			"id": 158,
			"name": "Providenciales",
			"lng": -72.27190798,
			"lat": 21.77376538
		},
		{
			"id": 20,
			"name": "Saint Petersburg",
			"lng": 30.33509862,
			"lat": 59.93428024
		},
		{
			"id": 78,
			"name": "Cincinnati",
			"lng": -84.51201959,
			"lat": 39.10311818
		},
		{
			"id": 138,
			"name": "Huntsville",
			"lng": -86.58610370,
			"lat": 34.73036879
		},
		{
			"id": 145,
			"name": "Mountain View",
			"lng": -122.08385108,
			"lat": 37.38605169
		},
		{
			"id": 149,
			"name": "Burbank",
			"lng": -118.30896611,
			"lat": 34.18083924
		},
		{
			"id": 175,
			"name": "Orland Park",
			"lng": -87.85394247,
			"lat": 41.63031031
		},
		{
			"id": 177,
			"name": "Palos Hills",
			"lng": -87.81699836,
			"lat": 41.69669922
		},
		{
			"id": 191,
			"name": "London",
			"lng": -81.24317698,
			"lat": 42.98695016
		},
		{
			"id": 5,
			"name": "Urbana",
			"lng": -88.20726967,
			"lat": 40.11058754
		},
		{
			"id": 27,
			"name": "London",
			"lng": -0.12775828,
			"lat": 51.50735089
		},
		{
			"id": 44,
			"name": "Mackinac Island",
			"lng": -84.62756582,
			"lat": 45.86831290
		},
		{
			"id": 70,
			"name": "Arvada",
			"lng": -105.08748423,
			"lat": 39.80276439
		},
		{
			"id": 90,
			"name": "Philadelphia",
			"lng": -75.16522152,
			"lat": 39.95258392
		},
		{
			"id": 110,
			"name": "Pittsburgh",
			"lng": -79.99588639,
			"lat": 40.44062476
		},
		{
			"id": 184,
			"name": "Long Beach",
			"lng": -86.85697357,
			"lat": 41.73892865
		},
		{
			"id": 84,
			"name": "Toronto",
			"lng": -79.38318428,
			"lat": 43.65322601
		},
		{
			"id": 105,
			"name": "Newport Beach",
			"lng": -117.92894690,
			"lat": 33.61891007
		},
		{
			"id": 128,
			"name": "Waterford",
			"lng": -7.11007025,
			"lat": 52.25931968
		},
		{
			"id": 131,
			"name": "Detroit",
			"lng": -83.04575381,
			"lat": 42.33142699
		},
		{
			"id": 155,
			"name": "Riverside",
			"lng": -117.39615638,
			"lat": 33.95334869
		},
		{
			"id": 171,
			"name": "Modesto",
			"lng": -120.99687822,
			"lat": 37.63909715
		},
		{
			"id": 2,
			"name": "Charleston",
			"lng": -88.17615208,
			"lat": 39.49614579
		},
		{
			"id": 30,
			"name": "Mdina",
			"lng": 14.40683573,
			"lat": 35.88809295
		},
		{
			"id": 57,
			"name": "Sausalito",
			"lng": -122.48525069,
			"lat": 37.85909371
		},
		{
			"id": 58,
			"name": "Oakland",
			"lng": -122.27111367,
			"lat": 37.80436374
		},
		{
			"id": 85,
			"name": "New York",
			"lng": -74.00594133,
			"lat": 40.71278370
		},
		{
			"id": 140,
			"name": "Dayton",
			"lng": -84.19160691,
			"lat": 39.75894777
		},
		{
			"id": 163,
			"name": "Wicklow",
			"lng": -6.04458900,
			"lat": 52.98082069
		},
		{
			"id": 170,
			"name": "San Luis Obispo",
			"lng": -120.65961559,
			"lat": 35.28275242
		},
		{
			"id": 12,
			"name": "Dublin",
			"lng": -6.26030965,
			"lat": 53.34980529
		},
		{
			"id": 95,
			"name": "Palm Desert",
			"lng": -116.37445558,
			"lat": 33.72224454
		},
		{
			"id": 120,
			"name": "Krabi",
			"lng": 98.90628350,
			"lat": 8.08629968
		},
		{
			"id": 22,
			"name": "Berlin",
			"lng": 13.40495405,
			"lat": 52.52000660
		},
		{
			"id": 46,
			"name": "Portage",
			"lng": -85.58000220,
			"lat": 42.20115379
		},
		{
			"id": 146,
			"name": "Millbrae",
			"lng": -122.38719418,
			"lat": 37.59854683
		},
		{
			"id": 103,
			"name": "Long Beach",
			"lng": -118.19373947,
			"lat": 33.77005040
		},
		{
			"id": 133,
			"name": "Kalamazoo",
			"lng": -85.58722858,
			"lat": 42.29170686
		},
		{
			"id": 135,
			"name": "Phoenix",
			"lng": -112.07403733,
			"lat": 33.44837712
		},
		{
			"id": 139,
			"name": "Columbia",
			"lng": -92.33407237,
			"lat": 38.95170527
		},
		{
			"id": 147,
			"name": "Emeryville",
			"lng": -122.28524730,
			"lat": 37.83131596
		},
		{
			"id": 179,
			"name": "Glen Ellyn",
			"lng": -88.06701178,
			"lat": 41.87752930
		},
		{
			"id": 6,
			"name": "Mattoon",
			"lng": -88.37282550,
			"lat": 39.48308973
		},
		{
			"id": 16,
			"name": "Baldoyle",
			"lng": -6.12725158,
			"lat": 53.39867122
		},
		{
			"id": 19,
			"name": "Osaka",
			"lng": 135.50216506,
			"lat": 34.69373780
		},
		{
			"id": 101,
			"name": "Los Angeles",
			"lng": -118.24368492,
			"lat": 34.05223422
		},
		{
			"id": 115,
			"name": "Springfield",
			"lng": -89.65014812,
			"lat": 39.78172130
		},
		{
			"id": 117,
			"name": "Macomb",
			"lng": -90.67179711,
			"lat": 40.45920764
		},
		{
			"id": 181,
			"name": "Skokie",
			"lng": -87.74162459,
			"lat": 42.03240252
		},
		{
			"id": 11,
			"name": "London",
			"lng": -0.12775828,
			"lat": 51.50735089
		},
		{
			"id": 35,
			"name": "Las Vegas",
			"lng": -115.13982958,
			"lat": 36.16994124
		},
		{
			"id": 107,
			"name": "San Diego",
			"lng": -117.16108380,
			"lat": 32.71573799
		},
		{
			"id": 130,
			"name": "Alpharetta",
			"lng": -84.29408991,
			"lat": 34.07537618
		},
		{
			"id": 176,
			"name": "Palos Hills",
			"lng": -87.81699836,
			"lat": 41.69669922
		},
		{
			"id": 152,
			"name": "Beverly Hills",
			"lng": -118.40035630,
			"lat": 34.07362041
		},
		{
			"id": 32,
			"name": "Saint Thomas",
			"lng": -64.89409456,
			"lat": 18.33809649
		},
		{
			"id": 124,
			"name": "Tullamore",
			"lng": -7.49338523,
			"lat": 53.27552551
		},
		{
			"id": 17,
			"name": "Dundalk",
			"lng": -6.40595697,
			"lat": 53.99794512
		},
		{
			"id": 41,
			"name": "Milwaukee",
			"lng": -87.90647358,
			"lat": 43.03890250
		},
		{
			"id": 49,
			"name": "Bellevue",
			"lng": -122.20067861,
			"lat": 47.61037699
		},
		{
			"id": 98,
			"name": "Yosemite National Park",
			"lng": -119.53832897,
			"lat": 37.86510100
		},
		{
			"id": 169,
			"name": "Bakersfield",
			"lng": -119.01871246,
			"lat": 35.37329212
		},
		{
			"id": 34,
			"name": "Reno",
			"lng": -119.81380269,
			"lat": 39.52963288
		},
		{
			"id": 53,
			"name": "Saint Helena",
			"lng": -122.47038680,
			"lat": 38.50524288
		},
		{
			"id": 71,
			"name": "Miami",
			"lng": -80.19179023,
			"lat": 25.76167983
		},
		{
			"id": 94,
			"name": "Indio",
			"lng": -116.21556187,
			"lat": 33.72057713
		},
		{
			"id": 126,
			"name": "Westmeath",
			"lng": -7.46532168,
			"lat": 53.53453083
		},
		{
			"id": 183,
			"name": "Michigan City",
			"lng": -86.89502971,
			"lat": 41.70753937
		},
		{
			"id": 192,
			"name": "Delhi",
			"lng": 77.1025,
			"lat": 28.7041
		},
		{
			"id": 196,
			"name": "New Delhi",
			"lng": 77.2090,
			"lat": 28.6139
		},
		{
			"id": 193,
			"name": "Mumbai",
			"lng": 72.8777,
			"lat": 19.0760
		},
		{
			"id": 194,
			"name": "Agra",
			"lng": 78.0081,
			"lat": 27.1767
		},
		{
			"id": 195,
			"name": "Fort Kochi",
			"lng": 76.2421,
			"lat": 9.9658
		},
		{
			"id": 197,
			"name": "Kannamally",
			"lng": 76.2638,
			"lat": 9.8757
		},
		{
			"id": 198,
			"name": "Mattancherry",
			"lng": 76.2566,
			"lat": 9.9586
		},
		{
			"id": 199,
			"name": "Qingdao",
			"lng": 120.3826,
			"lat": 36.0671
		},
		{
			"id": 200,
			"name": "San Juan",
			"lng": 66.10573,
			"lat": 18.46553
		},
		{
			"id": 202,
			"name": "Rincon de la Vieja",
			"lng": -85.3364,
			"lat": 10.8315
		},
		{
			"id": 203,
			"name": "Playa Del Coco",
			"lng": -85.7001,
			"lat": 10.5510
		},
		{
			"id": 204,
			"name": "Liberia",
			"lng": -85.4407,
			"lat": 10.6346
		},
		{
			"id": 205,
			"name": "Sydney",
			"lng": 151.2093,
			"lat": -33.8688
		},
		{
			"id": 206,
			"name": "Auckland",
			"lng": 174.7633,
			"lat": -36.8485
		},
		{
			"id": 207,
			"name": "Taipei",
			"lng": 121.5654,
			"lat": 25.0330
		},
		{
			"id": 209,
			"name": "Queenstown",
			"lng": 168.6626,
			"lat": -45.0312
		},
		{
			"id": 208,
			"name": "New Orleans, Louisiana",
			"lng": -90.0715,
			"lat": 29.9511
		},
		{
			"id": 210,
			"name": "San Salvador, El Salvador",
			"lng": -88.8965,
			"lat": 13.7942
		},
		{
			"id": 211,
			"name": "Cusco, Peru",
			"lng": -71.9675,
			"lat": -13.5320
		},
		{
			"id": 212,
			"name": "Aguas Calientes, Peru",
			"lng": -72.5254,
			"lat": -13.1547
		},
		{
			"id": 213,
			"name": "Lima, Peru",
			"lng": -77.0428,
			"lat": -12.0464
		},
		{
			"id": 214,
			"name": "Santiago, Chile",
			"lng": -70.6693,
			"lat": -33.4489
		},
		{
			"id": 215,
			"name": "Valle Nevado, Chile",
			"lng": -70.2489,
			"lat": -33.3538
		},
		{
			"id": 216,
			"name": "Buenos Aires, Argentina",
			"lng": -58.3816,
			"lat": -34.6037
		},
		{
			"id": 217,
			"name": "Tigre, Argentina",
			"lng": -58.5797,
			"lat": -34.4251
		}
	]
}
